{"type":"FeatureCollection","features":[{"type":"Feature","geometry":{"type":"Point","coordinates":[6.64444591008205,46.7816354339935,429.3]},"properties":{"id_poi":5006,"theme_name":"Oiseaux","owner_name":"Station ornithologique suisse","common_name":"Canard colvert","name":"Anatidae"}},{"type":"Feature","geometry":{"type":"Point","coordinates":[6.64612815738897,46.7838960719007,429.62]},"properties":{"id_poi":5011,"theme_name":"Oiseaux","owner_name":"Station ornithologique suisse","common_name":"Fuligule morillon","name":"Anatidae"}},{"type":"Feature","geometry":{"type":"Point","coordinates":[6.64485656633456,46.782205030374,429.26]},"properties":{"id_poi":5014,"theme_name":"Oiseaux","owner_name":"Station ornithologique suisse","common_name":"Harle bièvre","name":"Anatidae"}},{"type":"Feature","geometry":{"type":"Point","coordinates":[6.64526869453716,46.7826756760105,429.28]},"properties":{"id_poi":5016,"theme_name":"Oiseaux","owner_name":"Station ornithologique suisse","common_name":"Foulque macroule","name":"Rallidae"}},{"type":"Feature","geometry":{"type":"Point","coordinates":[6.64699804869104,46.7817341510761,472.17]},"properties":{"id_poi":5018,"theme_name":"Oiseaux","owner_name":"Station ornithologique suisse","common_name":"Goéland leucophée","name":"Laridae"}},{"type":"Feature","geometry":{"type":"Point","coordinates":[6.6463241657494,46.7821432760111,433.73]},"properties":{"id_poi":5031,"theme_name":"Oiseaux","owner_name":"Station ornithologique suisse","common_name":"Martinet noir","name":"Apodidae"}},{"type":"Feature","geometry":{"type":"Point","coordinates":[6.64689250258619,46.7817873931511,430.63]},"properties":{"id_poi":5035,"theme_name":"Oiseaux","owner_name":"Station ornithologique suisse","common_name":"Hirondelle de fenêtre","name":"Hirundinidae"}},{"type":"Feature","geometry":{"type":"Point","coordinates":[6.64470924896643,46.7815383142255,450.09]},"properties":{"id_poi":5043,"theme_name":"Oiseaux","owner_name":"Station ornithologique suisse","common_name":"Corneille noire","name":"Corvidae"}},{"type":"Feature","geometry":{"type":"Point","coordinates":[6.64455407654597,46.7822928804662,432.81]},"properties":{"id_poi":5075,"theme_name":"Oiseaux","owner_name":"Station ornithologique suisse","common_name":"Mésange bleue","name":"Paridae"}},{"type":"Feature","geometry":{"type":"Point","coordinates":[6.64351512828171,46.7825914922576,444.55]},"properties":{"id_poi":5141,"theme_name":"Oiseaux","owner_name":"Station ornithologique suisse","common_name":"Rougequeue noir","name":"Turdidae"}},{"type":"Feature","geometry":{"type":"Point","coordinates":[6.64525108760687,46.7838719811324,445.63]},"properties":{"id_poi":5151,"theme_name":"Oiseaux","owner_name":"Station ornithologique suisse","common_name":"Rougequeue noir","name":"Turdidae"}},{"type":"Feature","geometry":{"type":"Point","coordinates":[6.6450064325257,46.781810259422,439.63]},"properties":{"id_poi":5152,"theme_name":"Oiseaux","owner_name":"Station ornithologique suisse","common_name":"Rougequeue noir","name":"Turdidae"}},{"type":"Feature","geometry":{"type":"Point","coordinates":[6.6434811112889,46.7831220025331,432.65]},"properties":{"id_poi":5153,"theme_name":"Oiseaux","owner_name":"Station ornithologique suisse","common_name":"Rougequeue noir","name":"Turdidae"}},{"type":"Feature","geometry":{"type":"Point","coordinates":[6.64656991425765,46.7823518846683,431.99]},"properties":{"id_poi":5163,"theme_name":"Oiseaux","owner_name":"Station ornithologique suisse","common_name":"Merle noir","name":"Turdidae"}},{"type":"Feature","geometry":{"type":"Point","coordinates":[6.64338144480263,46.7818888914415,433.6]},"properties":{"id_poi":5164,"theme_name":"Oiseaux","owner_name":"Station ornithologique suisse","common_name":"Merle noir","name":"Turdidae"}},{"type":"Feature","geometry":{"type":"Point","coordinates":[6.64475351529122,46.7829779432341,439.54]},"properties":{"id_poi":5268,"theme_name":"Oiseaux","owner_name":"Station ornithologique suisse","common_name":"Bergeronnette grise","name":"Motacillidae"}},{"type":"Feature","geometry":{"type":"Point","coordinates":[6.64633369058795,46.7823862256643,443.57]},"properties":{"id_poi":5292,"theme_name":"Oiseaux","owner_name":"Station ornithologique suisse","common_name":"Moineau domestique (P.d.domesticus)","name":"Passeridae"}},{"type":"Feature","geometry":{"type":"Point","coordinates":[6.64358011303324,46.781737348125,433.51]},"properties":{"id_poi":5293,"theme_name":"Oiseaux","owner_name":"Station ornithologique suisse","common_name":"Moineau domestique (P.d.domesticus)","name":"Passeridae"}},{"type":"Feature","geometry":{"type":"Point","coordinates":[6.64641040504666,46.7825126984189,441.85]},"properties":{"id_poi":5306,"theme_name":"Oiseaux","owner_name":"Station ornithologique suisse","common_name":"Moineau domestique (P.d.domesticus)","name":"Passeridae"}},{"type":"Feature","geometry":{"type":"Point","coordinates":[6.64627483582235,46.7828266050468,434.66]},"properties":{"id_poi":5314,"theme_name":"Oiseaux","owner_name":"Station ornithologique suisse","common_name":"Moineau domestique (P.d.domesticus)","name":"Passeridae"}},{"type":"Feature","geometry":{"type":"Point","coordinates":[6.6460546134903,46.7826631517689,432.33]},"properties":{"id_poi":5315,"theme_name":"Oiseaux","owner_name":"Station ornithologique suisse","common_name":"Moineau domestique (P.d.domesticus)","name":"Passeridae"}},{"type":"Feature","geometry":{"type":"Point","coordinates":[6.64700479527175,46.782165996623,431.63]},"properties":{"id_poi":5351,"theme_name":"Oiseaux","owner_name":"Station ornithologique suisse","common_name":"Chardonneret élégant","name":"Fringillidae"}},{"type":"Feature","geometry":{"type":"Point","coordinates":[6.64471690486751,46.7819071974194,443.91]},"properties":{"id_poi":5356,"theme_name":"Oiseaux","owner_name":"Station ornithologique suisse","common_name":"Chardonneret élégant","name":"Fringillidae"}},{"type":"Feature","geometry":{"type":"Point","coordinates":[6.645940204221,46.7824284683401,432.78]},"properties":{"id_poi":5391,"theme_name":"Oiseaux","owner_name":"Station ornithologique suisse","common_name":"Pinson des arbres","name":"Fringillidae"}},{"type":"Feature","geometry":{"type":"Point","coordinates":[6.64583015948757,46.7827875305865,432.61]},"properties":{"id_poi":100094,"theme_name":"Flore","owner_name":"Info Flora","common_name":"Solidage du Canada","name":"Asteraceae"}},{"type":"Feature","geometry":{"type":"Point","coordinates":[6.64693192753343,46.7826692482932,432.27]},"properties":{"id_poi":100378,"theme_name":"Flore","owner_name":"Info Flora","common_name":"Cymbalaire","name":"Plantaginaceae"}},{"type":"Feature","geometry":{"type":"Point","coordinates":[6.64733732093072,46.7827080457961,431.8]},"properties":{"id_poi":100414,"theme_name":"Flore","owner_name":"Info Flora","common_name":"Marisque","name":"Cyperaceae"}},{"type":"Feature","geometry":{"type":"Point","coordinates":[6.64702822854021,46.7832456401453,431.19]},"properties":{"id_poi":100496,"theme_name":"Flore","owner_name":"Info Flora","common_name":"Flûteau commun","name":"Alismataceae"}},{"type":"Feature","geometry":{"type":"Point","coordinates":[6.64469714254569,46.7841379964594,431.73]},"properties":{"id_poi":100719,"theme_name":"Flore","owner_name":"Info Flora","common_name":"Epilobe à quatre angles","name":"Onagraceae"}},{"type":"Feature","geometry":{"type":"Point","coordinates":[6.64476129086273,46.7842284001042,431.81]},"properties":{"id_poi":100798,"theme_name":"Flore","owner_name":"Info Flora","common_name":"Buglosse officinale","name":"Boraginaceae"}}]}