{"type":"FeatureCollection","features":[{"type":"Feature","geometry":{"type":"Point","coordinates":[6.65685921003434,46.7799040870961,431.78]},"properties":{"id_poi":5028,"theme_name":"Oiseaux","owner_name":"Station ornithologique suisse","common_name":"Tourterelle des bois","name":"Columbidae"}},{"type":"Feature","geometry":{"type":"Point","coordinates":[6.65534470597119,46.7786972371576,436.89]},"properties":{"id_poi":5029,"theme_name":"Oiseaux","owner_name":"Station ornithologique suisse","common_name":"Tourterelle turque","name":"Columbidae"}},{"type":"Feature","geometry":{"type":"Point","coordinates":[6.65575308703536,46.77852912161,435.75]},"properties":{"id_poi":5030,"theme_name":"Oiseaux","owner_name":"Station ornithologique suisse","common_name":"Tourterelle turque","name":"Columbidae"}},{"type":"Feature","geometry":{"type":"Point","coordinates":[6.6581328112872,46.7796699253797,432.84]},"properties":{"id_poi":5040,"theme_name":"Oiseaux","owner_name":"Station ornithologique suisse","common_name":"Corneille noire","name":"Corvidae"}},{"type":"Feature","geometry":{"type":"Point","coordinates":[6.65453814366166,46.7792314433824,432.13]},"properties":{"id_poi":5048,"theme_name":"Oiseaux","owner_name":"Station ornithologique suisse","common_name":"Corneille noire","name":"Corvidae"}},{"type":"Feature","geometry":{"type":"Point","coordinates":[6.65649403188441,46.7798026270106,431.38]},"properties":{"id_poi":5058,"theme_name":"Oiseaux","owner_name":"Station ornithologique suisse","common_name":"Mésange charbonnière","name":"Paridae"}},{"type":"Feature","geometry":{"type":"Point","coordinates":[6.65739537798172,46.7790531560051,435.62]},"properties":{"id_poi":5071,"theme_name":"Oiseaux","owner_name":"Station ornithologique suisse","common_name":"Mésange bleue","name":"Paridae"}},{"type":"Feature","geometry":{"type":"Point","coordinates":[6.65737836025464,46.7793229154574,433.38]},"properties":{"id_poi":5079,"theme_name":"Oiseaux","owner_name":"Station ornithologique suisse","common_name":"Mésange bleue","name":"Paridae"}},{"type":"Feature","geometry":{"type":"Point","coordinates":[6.65586750955589,46.7796633875919,431.46]},"properties":{"id_poi":5088,"theme_name":"Oiseaux","owner_name":"Station ornithologique suisse","common_name":"Mésange nonnette","name":"Paridae"}},{"type":"Feature","geometry":{"type":"Point","coordinates":[6.65670536060508,46.7796781348996,432.37]},"properties":{"id_poi":5090,"theme_name":"Oiseaux","owner_name":"Station ornithologique suisse","common_name":"Mésange à longue queue","name":"Aegithalidae"}},{"type":"Feature","geometry":{"type":"Point","coordinates":[6.65502688278229,46.7807371157419,437.33]},"properties":{"id_poi":5097,"theme_name":"Oiseaux","owner_name":"Station ornithologique suisse","common_name":"Sittelle torchepot","name":"Sittidae"}},{"type":"Feature","geometry":{"type":"Point","coordinates":[6.65578422019955,46.7808862541126,437.37]},"properties":{"id_poi":5133,"theme_name":"Oiseaux","owner_name":"Station ornithologique suisse","common_name":"Rossignol philomèle","name":"Turdidae"}},{"type":"Feature","geometry":{"type":"Point","coordinates":[6.65701239946923,46.7792754268507,440.86]},"properties":{"id_poi":5146,"theme_name":"Oiseaux","owner_name":"Station ornithologique suisse","common_name":"Rougequeue noir","name":"Turdidae"}},{"type":"Feature","geometry":{"type":"Point","coordinates":[6.65774734671955,46.7800631047504,453.47]},"properties":{"id_poi":5157,"theme_name":"Oiseaux","owner_name":"Station ornithologique suisse","common_name":"Merle noir","name":"Turdidae"}},{"type":"Feature","geometry":{"type":"Point","coordinates":[6.65668859945344,46.7790303171631,433.81]},"properties":{"id_poi":5158,"theme_name":"Oiseaux","owner_name":"Station ornithologique suisse","common_name":"Merle noir","name":"Turdidae"}},{"type":"Feature","geometry":{"type":"Point","coordinates":[6.65684612088575,46.780803584309,431.06]},"properties":{"id_poi":5159,"theme_name":"Oiseaux","owner_name":"Station ornithologique suisse","common_name":"Merle noir","name":"Turdidae"}},{"type":"Feature","geometry":{"type":"Point","coordinates":[6.65595614189838,46.78077048853,437.97]},"properties":{"id_poi":5165,"theme_name":"Oiseaux","owner_name":"Station ornithologique suisse","common_name":"Merle noir","name":"Turdidae"}},{"type":"Feature","geometry":{"type":"Point","coordinates":[6.65763512807877,46.7796755137277,433.14]},"properties":{"id_poi":5168,"theme_name":"Oiseaux","owner_name":"Station ornithologique suisse","common_name":"Merle noir","name":"Turdidae"}},{"type":"Feature","geometry":{"type":"Point","coordinates":[6.65614090626846,46.7788736282227,435.07]},"properties":{"id_poi":5169,"theme_name":"Oiseaux","owner_name":"Station ornithologique suisse","common_name":"Merle noir","name":"Turdidae"}},{"type":"Feature","geometry":{"type":"Point","coordinates":[6.65565865662757,46.7805165608466,440.36]},"properties":{"id_poi":5170,"theme_name":"Oiseaux","owner_name":"Station ornithologique suisse","common_name":"Merle noir","name":"Turdidae"}},{"type":"Feature","geometry":{"type":"Point","coordinates":[6.65676494053698,46.7809829448246,431.02]},"properties":{"id_poi":5171,"theme_name":"Oiseaux","owner_name":"Station ornithologique suisse","common_name":"Merle noir","name":"Turdidae"}},{"type":"Feature","geometry":{"type":"Point","coordinates":[6.65697731971594,46.7807864924363,435.39]},"properties":{"id_poi":5177,"theme_name":"Oiseaux","owner_name":"Station ornithologique suisse","common_name":"Merle noir","name":"Turdidae"}},{"type":"Feature","geometry":{"type":"Point","coordinates":[6.65587129977119,46.7803021205501,443]},"properties":{"id_poi":5178,"theme_name":"Oiseaux","owner_name":"Station ornithologique suisse","common_name":"Merle noir","name":"Turdidae"}},{"type":"Feature","geometry":{"type":"Point","coordinates":[6.65708232329127,46.77986963383,459.66]},"properties":{"id_poi":5182,"theme_name":"Oiseaux","owner_name":"Station ornithologique suisse","common_name":"Merle noir","name":"Turdidae"}},{"type":"Feature","geometry":{"type":"Point","coordinates":[6.65557904614723,46.7805879808848,443.26]},"properties":{"id_poi":5204,"theme_name":"Oiseaux","owner_name":"Station ornithologique suisse","common_name":"Fauvette à tête noire","name":"Sylviidae"}},{"type":"Feature","geometry":{"type":"Point","coordinates":[6.65744436346553,46.7801869713665,453.56]},"properties":{"id_poi":5212,"theme_name":"Oiseaux","owner_name":"Station ornithologique suisse","common_name":"Fauvette à tête noire","name":"Sylviidae"}},{"type":"Feature","geometry":{"type":"Point","coordinates":[6.65738922985044,46.7794759197587,433.27]},"properties":{"id_poi":5213,"theme_name":"Oiseaux","owner_name":"Station ornithologique suisse","common_name":"Fauvette à tête noire","name":"Sylviidae"}},{"type":"Feature","geometry":{"type":"Point","coordinates":[6.65618266968034,46.7796025806295,431.88]},"properties":{"id_poi":5214,"theme_name":"Oiseaux","owner_name":"Station ornithologique suisse","common_name":"Fauvette à tête noire","name":"Sylviidae"}},{"type":"Feature","geometry":{"type":"Point","coordinates":[6.65566414859593,46.781038359134,447.38]},"properties":{"id_poi":5216,"theme_name":"Oiseaux","owner_name":"Station ornithologique suisse","common_name":"Fauvette à tête noire","name":"Sylviidae"}},{"type":"Feature","geometry":{"type":"Point","coordinates":[6.6576630151054,46.7795587583935,433.4]},"properties":{"id_poi":5230,"theme_name":"Oiseaux","owner_name":"Station ornithologique suisse","common_name":"Fauvette à tête noire","name":"Sylviidae"}},{"type":"Feature","geometry":{"type":"Point","coordinates":[6.65716127690181,46.7798431876166,457.05]},"properties":{"id_poi":5231,"theme_name":"Oiseaux","owner_name":"Station ornithologique suisse","common_name":"Fauvette à tête noire","name":"Sylviidae"}},{"type":"Feature","geometry":{"type":"Point","coordinates":[6.65611576144856,46.7797010758492,431.56]},"properties":{"id_poi":5232,"theme_name":"Oiseaux","owner_name":"Station ornithologique suisse","common_name":"Fauvette à tête noire","name":"Sylviidae"}},{"type":"Feature","geometry":{"type":"Point","coordinates":[6.6553103727808,46.7801543327483,455.46]},"properties":{"id_poi":5233,"theme_name":"Oiseaux","owner_name":"Station ornithologique suisse","common_name":"Fauvette à tête noire","name":"Sylviidae"}},{"type":"Feature","geometry":{"type":"Point","coordinates":[6.6581723531454,46.779652204267,433.13]},"properties":{"id_poi":5241,"theme_name":"Oiseaux","owner_name":"Station ornithologique suisse","common_name":"Fauvette à tête noire","name":"Sylviidae"}},{"type":"Feature","geometry":{"type":"Point","coordinates":[6.65533262660419,46.7804243618817,430.87]},"properties":{"id_poi":5242,"theme_name":"Oiseaux","owner_name":"Station ornithologique suisse","common_name":"Fauvette à tête noire","name":"Sylviidae"}},{"type":"Feature","geometry":{"type":"Point","coordinates":[6.65479198348276,46.7806815252505,444.63]},"properties":{"id_poi":5243,"theme_name":"Oiseaux","owner_name":"Station ornithologique suisse","common_name":"Fauvette à tête noire","name":"Sylviidae"}},{"type":"Feature","geometry":{"type":"Point","coordinates":[6.65581839073641,46.7812373277859,437.66]},"properties":{"id_poi":5244,"theme_name":"Oiseaux","owner_name":"Station ornithologique suisse","common_name":"Fauvette à tête noire","name":"Sylviidae"}},{"type":"Feature","geometry":{"type":"Point","coordinates":[6.65755146637657,46.7800257796264,448.54]},"properties":{"id_poi":5262,"theme_name":"Oiseaux","owner_name":"Station ornithologique suisse","common_name":"Pouillot véloce","name":"Sylviidae"}},{"type":"Feature","geometry":{"type":"Point","coordinates":[6.65529675474878,46.7801902226435,440.44]},"properties":{"id_poi":5263,"theme_name":"Oiseaux","owner_name":"Station ornithologique suisse","common_name":"Pouillot véloce","name":"Sylviidae"}},{"type":"Feature","geometry":{"type":"Point","coordinates":[6.65645095255696,46.7809627986814,447.09]},"properties":{"id_poi":5277,"theme_name":"Oiseaux","owner_name":"Station ornithologique suisse","common_name":"Etourneau sansonnet","name":"Sturnidae"}},{"type":"Feature","geometry":{"type":"Point","coordinates":[6.65670850246633,46.7794622555487,433.45]},"properties":{"id_poi":5283,"theme_name":"Oiseaux","owner_name":"Station ornithologique suisse","common_name":"Moineau domestique (P.d.domesticus)","name":"Passeridae"}},{"type":"Feature","geometry":{"type":"Point","coordinates":[6.656404603641,46.7796490834443,432.1]},"properties":{"id_poi":5284,"theme_name":"Oiseaux","owner_name":"Station ornithologique suisse","common_name":"Moineau domestique (P.d.domesticus)","name":"Passeridae"}},{"type":"Feature","geometry":{"type":"Point","coordinates":[6.65596505964353,46.7792592432744,433.68]},"properties":{"id_poi":5285,"theme_name":"Oiseaux","owner_name":"Station ornithologique suisse","common_name":"Moineau domestique (P.d.domesticus)","name":"Passeridae"}},{"type":"Feature","geometry":{"type":"Point","coordinates":[6.65796259597577,46.7796687601982,432.84]},"properties":{"id_poi":5296,"theme_name":"Oiseaux","owner_name":"Station ornithologique suisse","common_name":"Moineau domestique (P.d.domesticus)","name":"Passeridae"}},{"type":"Feature","geometry":{"type":"Point","coordinates":[6.65656630781747,46.7793353376816,433.69]},"properties":{"id_poi":5297,"theme_name":"Oiseaux","owner_name":"Station ornithologique suisse","common_name":"Moineau domestique (P.d.domesticus)","name":"Passeridae"}},{"type":"Feature","geometry":{"type":"Point","coordinates":[6.65586162291029,46.7791685741542,448.22]},"properties":{"id_poi":5298,"theme_name":"Oiseaux","owner_name":"Station ornithologique suisse","common_name":"Moineau domestique (P.d.domesticus)","name":"Passeridae"}},{"type":"Feature","geometry":{"type":"Point","coordinates":[6.65430466197666,46.7799764944778,441.55]},"properties":{"id_poi":5299,"theme_name":"Oiseaux","owner_name":"Station ornithologique suisse","common_name":"Moineau domestique (P.d.domesticus)","name":"Passeridae"}},{"type":"Feature","geometry":{"type":"Point","coordinates":[6.6564115441869,46.7791723498729,433.76]},"properties":{"id_poi":5309,"theme_name":"Oiseaux","owner_name":"Station ornithologique suisse","common_name":"Moineau domestique (P.d.domesticus)","name":"Passeridae"}},{"type":"Feature","geometry":{"type":"Point","coordinates":[6.65567805371575,46.7791853049385,433.61]},"properties":{"id_poi":5310,"theme_name":"Oiseaux","owner_name":"Station ornithologique suisse","common_name":"Moineau domestique (P.d.domesticus)","name":"Passeridae"}},{"type":"Feature","geometry":{"type":"Point","coordinates":[6.65605787833395,46.7809780921563,445.46]},"properties":{"id_poi":5325,"theme_name":"Oiseaux","owner_name":"Station ornithologique suisse","common_name":"Grosbec casse-noyaux","name":"Fringillidae"}},{"type":"Feature","geometry":{"type":"Point","coordinates":[6.65532738213092,46.7807841607386,430.86]},"properties":{"id_poi":5331,"theme_name":"Oiseaux","owner_name":"Station ornithologique suisse","common_name":"Verdier d'Europe","name":"Fringillidae"}},{"type":"Feature","geometry":{"type":"Point","coordinates":[6.6548173837255,46.7807356751753,437.01]},"properties":{"id_poi":5362,"theme_name":"Oiseaux","owner_name":"Station ornithologique suisse","common_name":"Serin cini","name":"Fringillidae"}},{"type":"Feature","geometry":{"type":"Point","coordinates":[6.65585677469762,46.7795013881542,431.98]},"properties":{"id_poi":5369,"theme_name":"Oiseaux","owner_name":"Station ornithologique suisse","common_name":"Pinson des arbres","name":"Fringillidae"}},{"type":"Feature","geometry":{"type":"Point","coordinates":[6.65533253046036,46.7786341823524,447.51]},"properties":{"id_poi":5397,"theme_name":"Oiseaux","owner_name":"Station ornithologique suisse","common_name":"Pinson des arbres","name":"Fringillidae"}},{"type":"Feature","geometry":{"type":"Point","coordinates":[6.65510010965161,46.7793072752755,433.15]},"properties":{"id_poi":100007,"theme_name":"Flore","owner_name":"Info Flora","common_name":"Massette à larges feuilles","name":"Typhaceae"}},{"type":"Feature","geometry":{"type":"Point","coordinates":[6.65490110908306,46.7785862369639,434.55]},"properties":{"id_poi":100029,"theme_name":"Flore","owner_name":"Info Flora","common_name":"Epiaire des marais","name":"Lamiaceae"}},{"type":"Feature","geometry":{"type":"Point","coordinates":[6.654806938859,46.7796560984704,432.39]},"properties":{"id_poi":100082,"theme_name":"Flore","owner_name":"Info Flora","common_name":"Solidage du Canada","name":"Asteraceae"}},{"type":"Feature","geometry":{"type":"Point","coordinates":[6.65510891681358,46.7778050246642,433.82]},"properties":{"id_poi":100085,"theme_name":"Flore","owner_name":"Info Flora","common_name":"Solidage du Canada","name":"Asteraceae"}},{"type":"Feature","geometry":{"type":"Point","coordinates":[6.65585665358072,46.7786107958692,435.48]},"properties":{"id_poi":100155,"theme_name":"Flore","owner_name":"Info Flora","common_name":"Scutellaire à casque","name":"Lamiaceae"}},{"type":"Feature","geometry":{"type":"Point","coordinates":[6.65709712591485,46.7806523759944,430.85]},"properties":{"id_poi":100162,"theme_name":"Flore","owner_name":"Info Flora","common_name":"Scutellaire à casque","name":"Lamiaceae"}},{"type":"Feature","geometry":{"type":"Point","coordinates":[6.65491147135696,46.7778756340244,434.13]},"properties":{"id_poi":100196,"theme_name":"Flore","owner_name":"Info Flora","common_name":"Roseau commun","name":"Poaceae"}},{"type":"Feature","geometry":{"type":"Point","coordinates":[6.65687007845677,46.7800570914429,431.41]},"properties":{"id_poi":100203,"theme_name":"Flore","owner_name":"Info Flora","common_name":"Roseau commun","name":"Poaceae"}},{"type":"Feature","geometry":{"type":"Point","coordinates":[6.65720250099193,46.7779093580178,439.64]},"properties":{"id_poi":100204,"theme_name":"Flore","owner_name":"Info Flora","common_name":"Roseau commun","name":"Poaceae"}},{"type":"Feature","geometry":{"type":"Point","coordinates":[6.65481856439899,46.7806547204346,430.88]},"properties":{"id_poi":100210,"theme_name":"Flore","owner_name":"Info Flora","common_name":"Roseau commun","name":"Poaceae"}},{"type":"Feature","geometry":{"type":"Point","coordinates":[6.65414984050793,46.7780233237198,434.28]},"properties":{"id_poi":100224,"theme_name":"Flore","owner_name":"Info Flora","common_name":"Roseau commun","name":"Poaceae"}},{"type":"Feature","geometry":{"type":"Point","coordinates":[6.65517799462865,46.7802523774471,431.03]},"properties":{"id_poi":100228,"theme_name":"Flore","owner_name":"Info Flora","common_name":"Roseau commun","name":"Poaceae"}},{"type":"Feature","geometry":{"type":"Point","coordinates":[6.65606901383793,46.7802135195669,431.2]},"properties":{"id_poi":100234,"theme_name":"Flore","owner_name":"Info Flora","common_name":"Roseau commun","name":"Poaceae"}},{"type":"Feature","geometry":{"type":"Point","coordinates":[6.65683302299655,46.7799039074647,431.82]},"properties":{"id_poi":100262,"theme_name":"Flore","owner_name":"Info Flora","common_name":"Menthe aquatique","name":"Lamiaceae"}},{"type":"Feature","geometry":{"type":"Point","coordinates":[6.65782198558073,46.7803334920614,431.32]},"properties":{"id_poi":100265,"theme_name":"Flore","owner_name":"Info Flora","common_name":"Menthe aquatique","name":"Lamiaceae"}},{"type":"Feature","geometry":{"type":"Point","coordinates":[6.65393007080097,46.779623076832,431.94]},"properties":{"id_poi":100266,"theme_name":"Flore","owner_name":"Info Flora","common_name":"Menthe aquatique","name":"Lamiaceae"}},{"type":"Feature","geometry":{"type":"Point","coordinates":[6.65542890257382,46.7783109931958,435.82]},"properties":{"id_poi":100283,"theme_name":"Flore","owner_name":"Info Flora","common_name":"Gesse des marais","name":"Fabaceae"}},{"type":"Feature","geometry":{"type":"Point","coordinates":[6.65695113230694,46.7807863128342,431.18]},"properties":{"id_poi":100296,"theme_name":"Flore","owner_name":"Info Flora","common_name":"Jonc noueux","name":"Juncaceae"}},{"type":"Feature","geometry":{"type":"Point","coordinates":[6.65567804122094,46.7800848921479,431.1]},"properties":{"id_poi":100304,"theme_name":"Flore","owner_name":"Info Flora","common_name":"Jonc noueux","name":"Juncaceae"}},{"type":"Feature","geometry":{"type":"Point","coordinates":[6.65641979056043,46.7804048408537,431.37]},"properties":{"id_poi":100305,"theme_name":"Flore","owner_name":"Info Flora","common_name":"Jonc noueux","name":"Juncaceae"}},{"type":"Feature","geometry":{"type":"Point","coordinates":[6.65670496553957,46.7788055326555,434.8]},"properties":{"id_poi":100306,"theme_name":"Flore","owner_name":"Info Flora","common_name":"Jonc noueux","name":"Juncaceae"}},{"type":"Feature","geometry":{"type":"Point","coordinates":[6.65649638951634,46.7787411303137,435.17]},"properties":{"id_poi":100308,"theme_name":"Flore","owner_name":"Info Flora","common_name":"Jonc noueux","name":"Juncaceae"}},{"type":"Feature","geometry":{"type":"Point","coordinates":[6.65680421424352,46.7791840401657,433.99]},"properties":{"id_poi":100314,"theme_name":"Flore","owner_name":"Info Flora","common_name":"Jonc noueux","name":"Juncaceae"}},{"type":"Feature","geometry":{"type":"Point","coordinates":[6.654097468029,46.778022963198,434.32]},"properties":{"id_poi":100341,"theme_name":"Flore","owner_name":"Info Flora","common_name":"Gaillet des marais","name":"Rubiaceae"}},{"type":"Feature","geometry":{"type":"Point","coordinates":[6.6554862565124,46.7779695440863,434.43]},"properties":{"id_poi":100343,"theme_name":"Flore","owner_name":"Info Flora","common_name":"Gaillet des marais","name":"Rubiaceae"}},{"type":"Feature","geometry":{"type":"Point","coordinates":[6.65649992298481,46.7811970273602,430.2]},"properties":{"id_poi":100353,"theme_name":"Flore","owner_name":"Info Flora","common_name":"Gaillet des marais","name":"Rubiaceae"}},{"type":"Feature","geometry":{"type":"Point","coordinates":[6.65648290254305,46.779667612563,432.2]},"properties":{"id_poi":100366,"theme_name":"Flore","owner_name":"Info Flora","common_name":"Orchis de Fuchs","name":"Orchidaceae"}},{"type":"Feature","geometry":{"type":"Point","coordinates":[6.65660846929447,46.780037304942,431.23]},"properties":{"id_poi":100398,"theme_name":"Flore","owner_name":"Info Flora","common_name":"Marisque","name":"Cyperaceae"}},{"type":"Feature","geometry":{"type":"Point","coordinates":[6.6550504471157,46.7809171952076,430.83]},"properties":{"id_poi":100399,"theme_name":"Flore","owner_name":"Info Flora","common_name":"Marisque","name":"Cyperaceae"}},{"type":"Feature","geometry":{"type":"Point","coordinates":[6.65537949472778,46.7808025106245,430.91]},"properties":{"id_poi":100407,"theme_name":"Flore","owner_name":"Info Flora","common_name":"Marisque","name":"Cyperaceae"}},{"type":"Feature","geometry":{"type":"Point","coordinates":[6.65660388685866,46.7803521289703,431.12]},"properties":{"id_poi":100431,"theme_name":"Flore","owner_name":"Info Flora","common_name":"Laiche des rives","name":"Cyperaceae"}},{"type":"Feature","geometry":{"type":"Point","coordinates":[6.65655308348589,46.7793442428055,433.82]},"properties":{"id_poi":100458,"theme_name":"Flore","owner_name":"Info Flora","common_name":"Laiche à angles aigus","name":"Cyperaceae"}},{"type":"Feature","geometry":{"type":"Point","coordinates":[6.65715040780166,46.7796901832976,432.96]},"properties":{"id_poi":100459,"theme_name":"Flore","owner_name":"Info Flora","common_name":"Laiche à angles aigus","name":"Cyperaceae"}},{"type":"Feature","geometry":{"type":"Point","coordinates":[6.655313012813,46.7790748460548,434.04]},"properties":{"id_poi":100468,"theme_name":"Flore","owner_name":"Info Flora","common_name":"Liseron des haies","name":"Convolvulaceae"}},{"type":"Feature","geometry":{"type":"Point","coordinates":[6.65500286068033,46.7778942542181,434.54]},"properties":{"id_poi":100469,"theme_name":"Flore","owner_name":"Info Flora","common_name":"Liseron des haies","name":"Convolvulaceae"}},{"type":"Feature","geometry":{"type":"Point","coordinates":[6.65531627286006,46.779749559002,431.38]},"properties":{"id_poi":100477,"theme_name":"Flore","owner_name":"Info Flora","common_name":"Liseron des haies","name":"Convolvulaceae"}}]}